{
    "data": [
        {"locationName": "新北", "locationNameForecast": "新北市", "longitude": "121.6739", "latitude": "24.91571"},
        {"locationName": "高雄", "locationNameForecast": "高雄市", "longitude": "120.666", "latitude": "23.01087"},
        {"locationName": "臺中", "locationNameForecast": "臺中市", "longitude": "120.9417", "latitude": "24.23321"},
        {"locationName": "臺北", "locationNameForecast": "臺北市", "longitude": "121.5598", "latitude": "25.09108"},
        {"locationName": "新屋", "locationNameForecast": "桃園市", "longitude": "121.2168", "latitude": "24.93759"},
        {"locationName": "臺南", "locationNameForecast": "臺南市", "longitude": "120.2513", "latitude": "23.1417"},
        {"locationName": "彰師大", "locationNameForecast": "彰化縣", "longitude": "120.4818", "latitude": "23.99297"},
        {"locationName": "恆春", "locationNameForecast": "屏東縣", "longitude": "120.62", "latitude": "22.54951"},
        {"locationName": "國一N234K", "locationNameForecast": "雲林縣", "longitude": "120.3897", "latitude": "23.75585"},
        {"locationName": "國一N142K", "locationNameForecast": "苗栗縣", "longitude": "120.9417", "latitude": "24.48927"},
        {"locationName": "國一N250K", "locationNameForecast": "嘉義縣", "longitude": "120.574", "latitude": "23.45889"},
        {"locationName": "新竹", "locationNameForecast": "新竹縣", "longitude": "121.1252", "latitude": "24.70328"},
        {"locationName": "國三N223K", "locationNameForecast": "南投縣", "longitude": "120.9876", "latitude": "23.83876"},
        {"locationName": "宜蘭", "locationNameForecast": "宜蘭縣", "longitude": "121.7195", "latitude": "24.69295"},
        {"locationName": "新竹", "locationNameForecast": "新竹市", "longitude": "120.9647", "latitude": "24.80395"},
        {"locationName": "基隆", "locationNameForecast": "基隆市", "longitude": "121.7081", "latitude": "25.10898"},
        {"locationName": "花蓮", "locationNameForecast": "花蓮縣", "longitude": "121.3542", "latitude": "23.7569"},
        {"locationName": "嘉義", "locationNameForecast": "嘉義市", "longitude": "120.4473", "latitude": "23.47545"},
        {"locationName": "臺東", "locationNameForecast": "臺東縣", "longitude": "120.9876", "latitude": "22.98461"},
        {"locationName": "金門", "locationNameForecast": "金門縣", "longitude": "118.3186", "latitude": "24.43679"},
        {"locationName": "澎湖", "locationNameForecast": "澎湖縣", "longitude": "119.6151", "latitude": "23.56548"},
        {"locationName": "馬祖", "locationNameForecast": "連江縣", "longitude": "119.5397", "latitude": "26.19737"}
    ]
}